{"type": "FeatureCollection", "features": [{"type": "Feature", "geometry": {"type": "Point", "coordinates": [0.195613, 52.76796]}, "properties": {"fid": "1", "cell_id": 0, "name": "South Holland", "type": "ltla", "postcode": "E07000140"}}, {"type": "Feature", "geometry": {"type": "Point", "coordinates": [-5.670361, 54.649756]}, "properties": {"fid": "2", "cell_id": 1, "name": "Ards and North Down", "type": "ltla", "postcode": "N09000011"}}, {"type": "Feature", "geometry": {"type": "Point", "coordinates": [-0.656679, 52.857943]}, "properties": {"fid": "3", "cell_id": 2, "name": "South Kesteven", "type": "ltla", "postcode": "E07000141"}}, {"type": "Feature", "geometry": {"type": "Point", "coordinates": [-0.776486, 53.39665]}, "properties": {"fid": "4", "cell_id": 3, "name": "West Lindsey", "type": "ltla", "postcode": "E07000142"}}, {"type": "Feature", "geometry": {"type": "Point", "coordinates": [0.934954, 52.435424]}, "properties": {"fid": "5", "cell_id": 4, "name": "Breckland", "type": "ltla", "postcode": "E07000143"}}, {"type": "Feature", "geometry": {"type": "Point", "coordinates": [-3.810324, 56.121231]}, "properties": {"fid": "6", "cell_id": 5, "name": "Clackmannanshire", "type": "ltla", "postcode": "S12000005"}}, {"type": "Feature", "geometry": {"type": "Point", "coordinates": [-3.194176, 55.044197]}, "properties": {"fid": "7", "cell_id": 6, "name": "Dumfries and Galloway", "type": "ltla", "postcode": "S12000006"}}, {"type": "Feature", "geometry": {"type": "Point", "coordinates": [1.444169, 52.625231]}, "properties": {"fid": "8", "cell_id": 7, "name": "Broadland", "type": "ltla", "postcode": "E07000144"}}, {"type": "Feature", "geometry": {"type": "Point", "coordinates": [1.703671, 52.695359]}, "properties": {"fid": "9", "cell_id": 8, "name": "Great Yarmouth", "type": "ltla", "postcode": "E07000145"}}, {"type": "Feature", "geometry": {"type": "Point", "coordinates": [-4.501569, 55.683793]}, "properties": {"fid": "10", "cell_id": 9, "name": "East Ayrshire", "type": "ltla", "postcode": "S12000008"}}, {"type": "Feature", "geometry": {"type": "Point", "coordinates": [-2.95284, 55.971859]}, "properties": {"fid": "11", "cell_id": 10, "name": "East Lothian", "type": "ltla", "postcode": "S12000010"}}, {"type": "Feature", "geometry": {"type": "Point", "coordinates": [0.366416, 52.639367]}, "properties": {"fid": "12", "cell_id": 11, "name": "King's Lynn and West Norfolk", "type": "ltla", "postcode": "E07000146"}}, {"type": "Feature", "geometry": {"type": "Point", "coordinates": [1.578547, 52.750159]}, "properties": {"fid": "13", "cell_id": 12, "name": "North Norfolk", "type": "ltla", "postcode": "E07000147"}}, {"type": "Feature", "geometry": {"type": "Point", "coordinates": [-4.302656, 55.801346]}, "properties": {"fid": "14", "cell_id": 13, "name": "East Renfrewshire", "type": "ltla", "postcode": "S12000011"}}, {"type": "Feature", "geometry": {"type": "Point", "coordinates": [-0.400399, 51.377817]}, "properties": {"fid": "15", "cell_id": 14, "name": "Elmbridge", "type": "ltla", "postcode": "E07000207"}}, {"type": "Feature", "geometry": {"type": "Point", "coordinates": [-6.370464, 58.207762]}, "properties": {"fid": "16", "cell_id": 15, "name": "Na h-Eileanan Siar", "type": "ltla", "postcode": "S12000013"}}, {"type": "Feature", "geometry": {"type": "Point", "coordinates": [-1.234153, 54.657845]}, "properties": {"fid": "17", "cell_id": 16, "name": "Hartlepool", "type": "ltla", "postcode": "E06000001"}}, {"type": "Feature", "geometry": {"type": "Point", "coordinates": [1.282702, 52.626195]}, "properties": {"fid": "18", "cell_id": 17, "name": "Norwich", "type": "ltla", "postcode": "E07000148"}}, {"type": "Feature", "geometry": {"type": "Point", "coordinates": [1.106153, 52.379524]}, "properties": {"fid": "19", "cell_id": 18, "name": "South Norfolk", "type": "ltla", "postcode": "E07000149"}}, {"type": "Feature", "geometry": {"type": "Point", "coordinates": [-3.607143, 56.017981]}, "properties": {"fid": "20", "cell_id": 19, "name": "Falkirk", "type": "ltla", "postcode": "S12000014"}}, {"type": "Feature", "geometry": {"type": "Point", "coordinates": [-1.213718, 54.572904]}, "properties": {"fid": "21", "cell_id": 20, "name": "Middlesbrough", "type": "ltla", "postcode": "E06000002"}}, {"type": "Feature", "geometry": {"type": "Point", "coordinates": [-0.268796, 51.344949]}, "properties": {"fid": "22", "cell_id": 21, "name": "Epsom and Ewell", "type": "ltla", "postcode": "E07000208"}}, {"type": "Feature", "geometry": {"type": "Point", "coordinates": [-0.67191, 51.242197]}, "properties": {"fid": "23", "cell_id": 22, "name": "Guildford", "type": "ltla", "postcode": "E07000209"}}, {"type": "Feature", "geometry": {"type": "Point", "coordinates": [-0.719542, 52.499585]}, "properties": {"fid": "24", "cell_id": 23, "name": "Corby", "type": "ltla", "postcode": "E07000150"}}, {"type": "Feature", "geometry": {"type": "Point", "coordinates": [-1.090321, 54.532661]}, "properties": {"fid": "25", "cell_id": 24, "name": "Redcar and Cleveland", "type": "ltla", "postcode": "E06000003"}}, {"type": "Feature", "geometry": {"type": "Point", "coordinates": [-4.179973, 57.69095]}, "properties": {"fid": "26", "cell_id": 25, "name": "Highland", "type": "ltla", "postcode": "S12000017"}}, {"type": "Feature", "geometry": {"type": "Point", "coordinates": [-4.733972, 55.944415]}, "properties": {"fid": "27", "cell_id": 26, "name": "Inverclyde", "type": "ltla", "postcode": "S12000018"}}, {"type": "Feature", "geometry": {"type": "Point", "coordinates": [-1.331713, 54.582438]}, "properties": {"fid": "28", "cell_id": 27, "name": "Stockton-on-Tees", "type": "ltla", "postcode": "E06000004"}}, {"type": "Feature", "geometry": {"type": "Point", "coordinates": [-1.219702, 52.235011]}, "properties": {"fid": "29", "cell_id": 28, "name": "Daventry", "type": "ltla", "postcode": "E07000151"}}, {"type": "Feature", "geometry": {"type": "Point", "coordinates": [-0.328457, 51.292849]}, "properties": {"fid": "30", "cell_id": 29, "name": "Mole Valley", "type": "ltla", "postcode": "E07000210"}}, {"type": "Feature", "geometry": {"type": "Point", "coordinates": [-0.208167, 51.237887]}, "properties": {"fid": "31", "cell_id": 30, "name": "Reigate and Banstead", "type": "ltla", "postcode": "E07000211"}}, {"type": "Feature", "geometry": {"type": "Point", "coordinates": [-1.569883, 54.534773]}, "properties": {"fid": "32", "cell_id": 31, "name": "Darlington", "type": "ltla", "postcode": "E06000005"}}, {"type": "Feature", "geometry": {"type": "Point", "coordinates": [-3.179639, 55.875872]}, "properties": {"fid": "33", "cell_id": 32, "name": "Midlothian", "type": "ltla", "postcode": "S12000019"}}, {"type": "Feature", "geometry": {"type": "Point", "coordinates": [-0.560877, 52.41573]}, "properties": {"fid": "34", "cell_id": 33, "name": "East Northamptonshire", "type": "ltla", "postcode": "E07000152"}}, {"type": "Feature", "geometry": {"type": "Point", "coordinates": [-0.717091, 52.378679]}, "properties": {"fid": "35", "cell_id": 34, "name": "Kettering", "type": "ltla", "postcode": "E07000153"}}, {"type": "Feature", "geometry": {"type": "Point", "coordinates": [-3.619932, 57.602083]}, "properties": {"fid": "36", "cell_id": 35, "name": "Moray", "type": "ltla", "postcode": "S12000020"}}, {"type": "Feature", "geometry": {"type": "Point", "coordinates": [-2.648984, 53.320564]}, "properties": {"fid": "37", "cell_id": 36, "name": "Halton", "type": "ltla", "postcode": "E06000006"}}, {"type": "Feature", "geometry": {"type": "Point", "coordinates": [-0.507805, 51.410113]}, "properties": {"fid": "38", "cell_id": 37, "name": "Runnymede", "type": "ltla", "postcode": "E07000212"}}, {"type": "Feature", "geometry": {"type": "Point", "coordinates": [-0.423423, 51.421571]}, "properties": {"fid": "39", "cell_id": 38, "name": "Spelthorne", "type": "ltla", "postcode": "E07000213"}}, {"type": "Feature", "geometry": {"type": "Point", "coordinates": [-2.610117, 53.391936]}, "properties": {"fid": "40", "cell_id": 39, "name": "Warrington", "type": "ltla", "postcode": "E06000007"}}, {"type": "Feature", "geometry": {"type": "Point", "coordinates": [-4.632702, 55.628007]}, "properties": {"fid": "41", "cell_id": 40, "name": "North Ayrshire", "type": "ltla", "postcode": "S12000021"}}, {"type": "Feature", "geometry": {"type": "Point", "coordinates": [-0.8512, 52.245783]}, "properties": {"fid": "42", "cell_id": 41, "name": "Northampton", "type": "ltla", "postcode": "E07000154"}}, {"type": "Feature", "geometry": {"type": "Point", "coordinates": [-0.787928, 52.213925]}, "properties": {"fid": "43", "cell_id": 42, "name": "South Northamptonshire", "type": "ltla", "postcode": "E07000155"}}, {"type": "Feature", "geometry": {"type": "Point", "coordinates": [-2.954258, 58.981751]}, "properties": {"fid": "44", "cell_id": 43, "name": "Orkney Islands", "type": "ltla", "postcode": "S12000023"}}, {"type": "Feature", "geometry": {"type": "Point", "coordinates": [-2.462477, 53.749654]}, "properties": {"fid": "45", "cell_id": 44, "name": "Blackburn with Darwen", "type": "ltla", "postcode": "E06000008"}}, {"type": "Feature", "geometry": {"type": "Point", "coordinates": [-0.644913, 51.336945]}, "properties": {"fid": "46", "cell_id": 45, "name": "Surrey Heath", "type": "ltla", "postcode": "E07000214"}}, {"type": "Feature", "geometry": {"type": "Point", "coordinates": [-0.016352, 51.249361]}, "properties": {"fid": "47", "cell_id": 46, "name": "Tandridge", "type": "ltla", "postcode": "E07000215"}}, {"type": "Feature", "geometry": {"type": "Point", "coordinates": [-3.043752, 53.809527]}, "properties": {"fid": "48", "cell_id": 47, "name": "Blackpool", "type": "ltla", "postcode": "E06000009"}}, {"type": "Feature", "geometry": {"type": "Point", "coordinates": [-0.676505, 52.301774]}, "properties": {"fid": "49", "cell_id": 48, "name": "Wellingborough", "type": "ltla", "postcode": "E07000156"}}, {"type": "Feature", "geometry": {"type": "Point", "coordinates": [-2.102172, 55.79345]}, "properties": {"fid": "50", "cell_id": 49, "name": "Scottish Borders", "type": "ltla", "postcode": "S12000026"}}, {"type": "Feature", "geometry": {"type": "Point", "coordinates": [-1.276561, 59.993092]}, "properties": {"fid": "51", "cell_id": 50, "name": "Shetland Islands", "type": "ltla", "postcode": "S12000027"}}, {"type": "Feature", "geometry": {"type": "Point", "coordinates": [-0.27019, 53.757124]}, "properties": {"fid": "52", "cell_id": 51, "name": "Kingston upon Hull, City of", "type": "ltla", "postcode": "E06000010"}}, {"type": "Feature", "geometry": {"type": "Point", "coordinates": [-0.775429, 51.134814]}, "properties": {"fid": "53", "cell_id": 52, "name": "Waverley", "type": "ltla", "postcode": "E07000216"}}, {"type": "Feature", "geometry": {"type": "Point", "coordinates": [-2.512038, 54.118008]}, "properties": {"fid": "54", "cell_id": 53, "name": "Craven", "type": "ltla", "postcode": "E07000163"}}, {"type": "Feature", "geometry": {"type": "Point", "coordinates": [-1.63177, 54.308323]}, "properties": {"fid": "55", "cell_id": 54, "name": "Hambleton", "type": "ltla", "postcode": "E07000164"}}, {"type": "Feature", "geometry": {"type": "Point", "coordinates": [-0.549223, 51.312626]}, "properties": {"fid": "56", "cell_id": 55, "name": "Woking", "type": "ltla", "postcode": "E07000217"}}, {"type": "Feature", "geometry": {"type": "Point", "coordinates": [-0.495446, 53.737773]}, "properties": {"fid": "57", "cell_id": 56, "name": "East Riding of Yorkshire", "type": "ltla", "postcode": "E06000011"}}, {"type": "Feature", "geometry": {"type": "Point", "coordinates": [-4.656113, 55.555574]}, "properties": {"fid": "58", "cell_id": 57, "name": "South Ayrshire", "type": "ltla", "postcode": "S12000028"}}, {"type": "Feature", "geometry": {"type": "Point", "coordinates": [-4.104581, 55.804375]}, "properties": {"fid": "59", "cell_id": 58, "name": "South Lanarkshire", "type": "ltla", "postcode": "S12000029"}}, {"type": "Feature", "geometry": {"type": "Point", "coordinates": [-1.558043, 53.977631]}, "properties": {"fid": "60", "cell_id": 59, "name": "Harrogate", "type": "ltla", "postcode": "E07000165"}}, {"type": "Feature", "geometry": {"type": "Point", "coordinates": [-0.087001, 53.567059]}, "properties": {"fid": "61", "cell_id": 60, "name": "North East Lincolnshire", "type": "ltla", "postcode": "E06000012"}}, {"type": "Feature", "geometry": {"type": "Point", "coordinates": [-1.710301, 52.512896]}, "properties": {"fid": "62", "cell_id": 61, "name": "North Warwickshire", "type": "ltla", "postcode": "E07000218"}}, {"type": "Feature", "geometry": {"type": "Point", "coordinates": [-1.498191, 52.474449]}, "properties": {"fid": "63", "cell_id": 62, "name": "Nuneaton and Bedworth", "type": "ltla", "postcode": "E07000219"}}, {"type": "Feature", "geometry": {"type": "Point", "coordinates": [-0.482516, 53.620886]}, "properties": {"fid": "64", "cell_id": 63, "name": "North Lincolnshire", "type": "ltla", "postcode": "E06000013"}}, {"type": "Feature", "geometry": {"type": "Point", "coordinates": [-1.833463, 54.310989]}, "properties": {"fid": "65", "cell_id": 64, "name": "Richmondshire", "type": "ltla", "postcode": "E07000166"}}, {"type": "Feature", "geometry": {"type": "Point", "coordinates": [-3.929099, 56.090911]}, "properties": {"fid": "66", "cell_id": 65, "name": "Stirling", "type": "ltla", "postcode": "S12000030"}}, {"type": "Feature", "geometry": {"type": "Point", "coordinates": [-2.181925, 57.174924]}, "properties": {"fid": "67", "cell_id": 66, "name": "Aberdeen City", "type": "ltla", "postcode": "S12000033"}}, {"type": "Feature", "geometry": {"type": "Point", "coordinates": [-1.104097, 54.019659]}, "properties": {"fid": "68", "cell_id": 67, "name": "York", "type": "ltla", "postcode": "E06000014"}}, {"type": "Feature", "geometry": {"type": "Point", "coordinates": [-1.236477, 52.410307]}, "properties": {"fid": "69", "cell_id": 68, "name": "Rugby", "type": "ltla", "postcode": "E07000220"}}, {"type": "Feature", "geometry": {"type": "Point", "coordinates": [-0.883786, 54.063134]}, "properties": {"fid": "70", "cell_id": 69, "name": "Ryedale", "type": "ltla", "postcode": "E07000167"}}, {"type": "Feature", "geometry": {"type": "Point", "coordinates": [-0.343316, 54.224902]}, "properties": {"fid": "71", "cell_id": 70, "name": "Scarborough", "type": "ltla", "postcode": "E07000168"}}, {"type": "Feature", "geometry": {"type": "Point", "coordinates": [-2.904968, 57.206998]}, "properties": {"fid": "72", "cell_id": 71, "name": "Aberdeenshire", "type": "ltla", "postcode": "S12000034"}}, {"type": "Feature", "geometry": {"type": "Point", "coordinates": [-1.919147, 52.183025]}, "properties": {"fid": "73", "cell_id": 72, "name": "Stratford-on-Avon", "type": "ltla", "postcode": "E07000221"}}, {"type": "Feature", "geometry": {"type": "Point", "coordinates": [-1.511826, 52.897653]}, "properties": {"fid": "74", "cell_id": 73, "name": "Derby", "type": "ltla", "postcode": "E06000015"}}, {"type": "Feature", "geometry": {"type": "Point", "coordinates": [-1.13299, 52.633575]}, "properties": {"fid": "75", "cell_id": 74, "name": "Leicester", "type": "ltla", "postcode": "E06000016"}}, {"type": "Feature", "geometry": {"type": "Point", "coordinates": [-4.812309, 56.016763]}, "properties": {"fid": "76", "cell_id": 75, "name": "Argyll and Bute", "type": "ltla", "postcode": "S12000035"}}, {"type": "Feature", "geometry": {"type": "Point", "coordinates": [-1.325178, 53.858259]}, "properties": {"fid": "77", "cell_id": 76, "name": "Selby", "type": "ltla", "postcode": "E07000169"}}, {"type": "Feature", "geometry": {"type": "Point", "coordinates": [-1.528157, 52.304619]}, "properties": {"fid": "78", "cell_id": 77, "name": "Warwick", "type": "ltla", "postcode": "E07000222"}}, {"type": "Feature", "geometry": {"type": "Point", "coordinates": [-3.155661, 55.927919]}, "properties": {"fid": "79", "cell_id": 78, "name": "City of Edinburgh", "type": "ltla", "postcode": "S12000036"}}, {"type": "Feature", "geometry": {"type": "Point", "coordinates": [-1.199893, 53.044198]}, "properties": {"fid": "80", "cell_id": 79, "name": "Ashfield", "type": "ltla", "postcode": "E07000170"}}, {"type": "Feature", "geometry": {"type": "Point", "coordinates": [-0.61452, 52.609156]}, "properties": {"fid": "81", "cell_id": 80, "name": "Rutland", "type": "ltla", "postcode": "E06000017"}}, {"type": "Feature", "geometry": {"type": "Point", "coordinates": [-0.330158, 50.825386]}, "properties": {"fid": "82", "cell_id": 81, "name": "Adur", "type": "ltla", "postcode": "E07000223"}}, {"type": "Feature", "geometry": {"type": "Point", "coordinates": [-4.453231, 55.849888]}, "properties": {"fid": "83", "cell_id": 82, "name": "Renfrewshire", "type": "ltla", "postcode": "S12000038"}}, {"type": "Feature", "geometry": {"type": "Point", "coordinates": [-0.806101, 53.30787]}, "properties": {"fid": "84", "cell_id": 83, "name": "Bassetlaw", "type": "ltla", "postcode": "E07000171"}}, {"type": "Feature", "geometry": {"type": "Point", "coordinates": [-1.180869, 53.012228]}, "properties": {"fid": "85", "cell_id": 84, "name": "Nottingham", "type": "ltla", "postcode": "E06000018"}}, {"type": "Feature", "geometry": {"type": "Point", "coordinates": [-4.593938, 55.948049]}, "properties": {"fid": "86", "cell_id": 85, "name": "West Dunbartonshire", "type": "ltla", "postcode": "S12000039"}}, {"type": "Feature", "geometry": {"type": "Point", "coordinates": [-0.643412, 50.789823]}, "properties": {"fid": "87", "cell_id": 86, "name": "Arun", "type": "ltla", "postcode": "E07000224"}}, {"type": "Feature", "geometry": {"type": "Point", "coordinates": [-1.272098, 52.936898]}, "properties": {"fid": "88", "cell_id": 87, "name": "Broxtowe", "type": "ltla", "postcode": "E07000172"}}, {"type": "Feature", "geometry": {"type": "Point", "coordinates": [-3.719881, 55.896305]}, "properties": {"fid": "89", "cell_id": 88, "name": "West Lothian", "type": "ltla", "postcode": "S12000040"}}, {"type": "Feature", "geometry": {"type": "Point", "coordinates": [-2.7453, 52.129279]}, "properties": {"fid": "90", "cell_id": 89, "name": "Herefordshire, County of", "type": "ltla", "postcode": "E06000019"}}, {"type": "Feature", "geometry": {"type": "Point", "coordinates": [-0.79449, 50.797551]}, "properties": {"fid": "91", "cell_id": 90, "name": "Chichester", "type": "ltla", "postcode": "E07000225"}}, {"type": "Feature", "geometry": {"type": "Point", "coordinates": [-1.121414, 52.976943]}, "properties": {"fid": "92", "cell_id": 91, "name": "Gedling", "type": "ltla", "postcode": "E07000173"}}, {"type": "Feature", "geometry": {"type": "Point", "coordinates": [-2.581762, 56.574762]}, "properties": {"fid": "93", "cell_id": 92, "name": "Angus", "type": "ltla", "postcode": "S12000041"}}, {"type": "Feature", "geometry": {"type": "Point", "coordinates": [-2.504575, 52.716946]}, "properties": {"fid": "94", "cell_id": 93, "name": "Telford and Wrekin", "type": "ltla", "postcode": "E06000020"}}, {"type": "Feature", "geometry": {"type": "Point", "coordinates": [-1.170959, 53.147368]}, "properties": {"fid": "95", "cell_id": 94, "name": "Mansfield", "type": "ltla", "postcode": "E07000174"}}, {"type": "Feature", "geometry": {"type": "Point", "coordinates": [-0.200803, 51.105218]}, "properties": {"fid": "96", "cell_id": 95, "name": "Crawley", "type": "ltla", "postcode": "E07000226"}}, {"type": "Feature", "geometry": {"type": "Point", "coordinates": [-3.013083, 56.477165]}, "properties": {"fid": "97", "cell_id": 96, "name": "Dundee City", "type": "ltla", "postcode": "S12000042"}}, {"type": "Feature", "geometry": {"type": "Point", "coordinates": [-0.812993, 53.076209]}, "properties": {"fid": "98", "cell_id": 97, "name": "Newark and Sherwood", "type": "ltla", "postcode": "E07000175"}}, {"type": "Feature", "geometry": {"type": "Point", "coordinates": [-2.190252, 53.074528]}, "properties": {"fid": "99", "cell_id": 98, "name": "Stoke-on-Trent", "type": "ltla", "postcode": "E06000021"}}, {"type": "Feature", "geometry": {"type": "Point", "coordinates": [-0.405439, 50.914489]}, "properties": {"fid": "100", "cell_id": 99, "name": "Horsham", "type": "ltla", "postcode": "E07000227"}}, {"type": "Feature", "geometry": {"type": "Point", "coordinates": [-0.986316, 52.912104]}, "properties": {"fid": "102", "cell_id": 101, "name": "Rushcliffe", "type": "ltla", "postcode": "E07000176"}}, {"type": "Feature", "geometry": {"type": "Point", "coordinates": [-2.491989, 51.282467]}, "properties": {"fid": "103", "cell_id": 102, "name": "Bath and North East Somerset", "type": "ltla", "postcode": "E06000022"}}, {"type": "Feature", "geometry": {"type": "Point", "coordinates": [-4.323304, 55.91536]}, "properties": {"fid": "104", "cell_id": 103, "name": "East Dunbartonshire", "type": "ltla", "postcode": "S12000045"}}, {"type": "Feature", "geometry": {"type": "Point", "coordinates": [-0.203479, 50.936134]}, "properties": {"fid": "105", "cell_id": 104, "name": "Mid Sussex", "type": "ltla", "postcode": "E07000228"}}, {"type": "Feature", "geometry": {"type": "Point", "coordinates": [-1.295611, 51.829362]}, "properties": {"fid": "106", "cell_id": 105, "name": "Cherwell", "type": "ltla", "postcode": "E07000177"}}, {"type": "Feature", "geometry": {"type": "Point", "coordinates": [-2.605884, 51.476631]}, "properties": {"fid": "108", "cell_id": 107, "name": "Bristol, City of", "type": "ltla", "postcode": "E06000023"}}, {"type": "Feature", "geometry": {"type": "Point", "coordinates": [-0.369327, 50.815272]}, "properties": {"fid": "109", "cell_id": 108, "name": "Worthing", "type": "ltla", "postcode": "E07000229"}}, {"type": "Feature", "geometry": {"type": "Point", "coordinates": [-1.233277, 51.736779]}, "properties": {"fid": "110", "cell_id": 109, "name": "Oxford", "type": "ltla", "postcode": "E07000178"}}, {"type": "Feature", "geometry": {"type": "Point", "coordinates": [-3.141961, 56.195188]}, "properties": {"fid": "111", "cell_id": 110, "name": "Fife", "type": "ltla", "postcode": "S12000047"}}, {"type": "Feature", "geometry": {"type": "Point", "coordinates": [-3.206179, 56.395051]}, "properties": {"fid": "112", "cell_id": 111, "name": "Perth and Kinross", "type": "ltla", "postcode": "S12000048"}}, {"type": "Feature", "geometry": {"type": "Point", "coordinates": [-4.097696, 53.264262]}, "properties": {"fid": "113", "cell_id": 112, "name": "Isle of Anglesey", "type": "ltla", "postcode": "W06000001"}}, {"type": "Feature", "geometry": {"type": "Point", "coordinates": [-4.120687, 53.231013]}, "properties": {"fid": "114", "cell_id": 113, "name": "Gwynedd", "type": "ltla", "postcode": "W06000002"}}, {"type": "Feature", "geometry": {"type": "Point", "coordinates": [-3.704006, 53.251536]}, "properties": {"fid": "115", "cell_id": 114, "name": "Conwy", "type": "ltla", "postcode": "W06000003"}}, {"type": "Feature", "geometry": {"type": "Point", "coordinates": [-3.46382, 53.309969]}, "properties": {"fid": "116", "cell_id": 115, "name": "Denbighshire", "type": "ltla", "postcode": "W06000004"}}, {"type": "Feature", "geometry": {"type": "Point", "coordinates": [-2.989878, 53.196365]}, "properties": {"fid": "117", "cell_id": 116, "name": "Flintshire", "type": "ltla", "postcode": "W06000005"}}, {"type": "Feature", "geometry": {"type": "Point", "coordinates": [-3.05316, 53.062863]}, "properties": {"fid": "118", "cell_id": 117, "name": "Wrexham", "type": "ltla", "postcode": "W06000006"}}, {"type": "Feature", "geometry": {"type": "Point", "coordinates": [-4.658762, 52.082815]}, "properties": {"fid": "119", "cell_id": 118, "name": "Ceredigion", "type": "ltla", "postcode": "W06000008"}}, {"type": "Feature", "geometry": {"type": "Point", "coordinates": [-4.842939, 52.015189]}, "properties": {"fid": "120", "cell_id": 119, "name": "Pembrokeshire", "type": "ltla", "postcode": "W06000009"}}, {"type": "Feature", "geometry": {"type": "Point", "coordinates": [-4.064161, 52.103042]}, "properties": {"fid": "121", "cell_id": 120, "name": "Carmarthenshire", "type": "ltla", "postcode": "W06000010"}}, {"type": "Feature", "geometry": {"type": "Point", "coordinates": [-3.999976, 51.675465]}, "properties": {"fid": "122", "cell_id": 121, "name": "Swansea", "type": "ltla", "postcode": "W06000011"}}, {"type": "Feature", "geometry": {"type": "Point", "coordinates": [-3.822023, 51.693276]}, "properties": {"fid": "123", "cell_id": 122, "name": "Neath Port Talbot", "type": "ltla", "postcode": "W06000012"}}, {"type": "Feature", "geometry": {"type": "Point", "coordinates": [-3.706898, 51.486273]}, "properties": {"fid": "124", "cell_id": 123, "name": "Bridgend", "type": "ltla", "postcode": "W06000013"}}, {"type": "Feature", "geometry": {"type": "Point", "coordinates": [-3.282727, 51.399845]}, "properties": {"fid": "125", "cell_id": 124, "name": "Vale of Glamorgan", "type": "ltla", "postcode": "W06000014"}}, {"type": "Feature", "geometry": {"type": "Point", "coordinates": [-3.17269, 51.463016]}, "properties": {"fid": "126", "cell_id": 125, "name": "Cardiff", "type": "ltla", "postcode": "W06000015"}}, {"type": "Feature", "geometry": {"type": "Point", "coordinates": [-3.451008, 51.709824]}, "properties": {"fid": "127", "cell_id": 126, "name": "Rhondda, Cynon, Taff", "type": "ltla", "postcode": "W06000016"}}, {"type": "Feature", "geometry": {"type": "Point", "coordinates": [-3.224827, 51.703885]}, "properties": {"fid": "128", "cell_id": 127, "name": "Caerphilly", "type": "ltla", "postcode": "W06000018"}}, {"type": "Feature", "geometry": {"type": "Point", "coordinates": [-3.226104, 51.788227]}, "properties": {"fid": "129", "cell_id": 128, "name": "Blaenau Gwent", "type": "ltla", "postcode": "W06000019"}}, {"type": "Feature", "geometry": {"type": "Point", "coordinates": [-3.05039, 51.652111]}, "properties": {"fid": "130", "cell_id": 129, "name": "Torfaen", "type": "ltla", "postcode": "W06000020"}}, {"type": "Feature", "geometry": {"type": "Point", "coordinates": [-3.008497, 51.839275]}, "properties": {"fid": "131", "cell_id": 130, "name": "Monmouthshire", "type": "ltla", "postcode": "W06000021"}}, {"type": "Feature", "geometry": {"type": "Point", "coordinates": [-3.016562, 51.559499]}, "properties": {"fid": "132", "cell_id": 131, "name": "Newport", "type": "ltla", "postcode": "W06000022"}}, {"type": "Feature", "geometry": {"type": "Point", "coordinates": [-3.136818, 52.867732]}, "properties": {"fid": "133", "cell_id": 132, "name": "Powys", "type": "ltla", "postcode": "W06000023"}}, {"type": "Feature", "geometry": {"type": "Point", "coordinates": [-3.378396, 51.758939]}, "properties": {"fid": "134", "cell_id": 133, "name": "Merthyr Tydfil", "type": "ltla", "postcode": "W06000024"}}, {"type": "Feature", "geometry": {"type": "Point", "coordinates": [-2.943293, 51.364683]}, "properties": {"fid": "136", "cell_id": 135, "name": "North Somerset", "type": "ltla", "postcode": "E06000024"}}, {"type": "Feature", "geometry": {"type": "Point", "coordinates": [-2.500874, 51.480713]}, "properties": {"fid": "137", "cell_id": 136, "name": "South Gloucestershire", "type": "ltla", "postcode": "E06000025"}}, {"type": "Feature", "geometry": {"type": "Point", "coordinates": [-4.097596, 50.403052]}, "properties": {"fid": "138", "cell_id": 137, "name": "Plymouth", "type": "ltla", "postcode": "E06000026"}}, {"type": "Feature", "geometry": {"type": "Point", "coordinates": [-1.230699, 51.709491]}, "properties": {"fid": "139", "cell_id": 138, "name": "South Oxfordshire", "type": "ltla", "postcode": "E07000179"}}, {"type": "Feature", "geometry": {"type": "Point", "coordinates": [-3.569083, 50.437947]}, "properties": {"fid": "140", "cell_id": 139, "name": "Torbay", "type": "ltla", "postcode": "E06000027"}}, {"type": "Feature", "geometry": {"type": "Point", "coordinates": [-1.582334, 51.658761]}, "properties": {"fid": "141", "cell_id": 140, "name": "Vale of White Horse", "type": "ltla", "postcode": "E07000180"}}, {"type": "Feature", "geometry": {"type": "Point", "coordinates": [-2.017916, 52.327795]}, "properties": {"fid": "142", "cell_id": 141, "name": "Bromsgrove", "type": "ltla", "postcode": "E07000234"}}, {"type": "Feature", "geometry": {"type": "Point", "coordinates": [-1.590398, 51.713543]}, "properties": {"fid": "145", "cell_id": 144, "name": "West Oxfordshire", "type": "ltla", "postcode": "E07000181"}}, {"type": "Feature", "geometry": {"type": "Point", "coordinates": [-2.292435, 52.316129]}, "properties": {"fid": "146", "cell_id": 145, "name": "Malvern Hills", "type": "ltla", "postcode": "E07000235"}}, {"type": "Feature", "geometry": {"type": "Point", "coordinates": [-2.312458, 51.243951]}, "properties": {"fid": "149", "cell_id": 148, "name": "Mendip", "type": "ltla", "postcode": "E07000187"}}, {"type": "Feature", "geometry": {"type": "Point", "coordinates": [-1.964323, 52.297269]}, "properties": {"fid": "150", "cell_id": 149, "name": "Redditch", "type": "ltla", "postcode": "E07000236"}}, {"type": "Feature", "geometry": {"type": "Point", "coordinates": [-1.754164, 51.591763]}, "properties": {"fid": "152", "cell_id": 151, "name": "Swindon", "type": "ltla", "postcode": "E06000030"}}, {"type": "Feature", "geometry": {"type": "Point", "coordinates": [-3.005416, 51.134341]}, "properties": {"fid": "153", "cell_id": 152, "name": "Sedgemoor", "type": "ltla", "postcode": "E07000188"}}, {"type": "Feature", "geometry": {"type": "Point", "coordinates": [-2.235954, 52.196257]}, "properties": {"fid": "154", "cell_id": 153, "name": "Worcester", "type": "ltla", "postcode": "E07000237"}}, {"type": "Feature", "geometry": {"type": "Point", "coordinates": [0.117063, 52.16676]}, "properties": {"fid": "155", "cell_id": 154, "name": "Cambridge", "type": "ltla", "postcode": "E07000008"}}, {"type": "Feature", "geometry": {"type": "Point", "coordinates": [-0.269055, 52.604099]}, "properties": {"fid": "156", "cell_id": 155, "name": "Peterborough", "type": "ltla", "postcode": "E06000031"}}, {"type": "Feature", "geometry": {"type": "Point", "coordinates": [-2.717949, 50.971365]}, "properties": {"fid": "157", "cell_id": 156, "name": "South Somerset", "type": "ltla", "postcode": "E07000189"}}, {"type": "Feature", "geometry": {"type": "Point", "coordinates": [-1.878227, 52.125103]}, "properties": {"fid": "158", "cell_id": 157, "name": "Wychavon", "type": "ltla", "postcode": "E07000238"}}, {"type": "Feature", "geometry": {"type": "Point", "coordinates": [0.301702, 52.456384]}, "properties": {"fid": "159", "cell_id": 158, "name": "East Cambridgeshire", "type": "ltla", "postcode": "E07000009"}}, {"type": "Feature", "geometry": {"type": "Point", "coordinates": [-0.389945, 51.884907]}, "properties": {"fid": "160", "cell_id": 159, "name": "Luton", "type": "ltla", "postcode": "E06000032"}}, {"type": "Feature", "geometry": {"type": "Point", "coordinates": [-2.227545, 52.425515]}, "properties": {"fid": "162", "cell_id": 161, "name": "Wyre Forest", "type": "ltla", "postcode": "E07000239"}}, {"type": "Feature", "geometry": {"type": "Point", "coordinates": [0.075277, 52.617969]}, "properties": {"fid": "163", "cell_id": 162, "name": "Fenland", "type": "ltla", "postcode": "E07000010"}}, {"type": "Feature", "geometry": {"type": "Point", "coordinates": [0.773832, 51.527911]}, "properties": {"fid": "164", "cell_id": 163, "name": "Southend-on-Sea", "type": "ltla", "postcode": "E06000033"}}, {"type": "Feature", "geometry": {"type": "Point", "coordinates": [-0.311023, 51.767158]}, "properties": {"fid": "166", "cell_id": 165, "name": "St Albans", "type": "ltla", "postcode": "E07000240"}}, {"type": "Feature", "geometry": {"type": "Point", "coordinates": [-0.276286, 52.431299]}, "properties": {"fid": "167", "cell_id": 166, "name": "Huntingdonshire", "type": "ltla", "postcode": "E07000011"}}, {"type": "Feature", "geometry": {"type": "Point", "coordinates": [0.313359, 51.475577]}, "properties": {"fid": "168", "cell_id": 167, "name": "Thurrock", "type": "ltla", "postcode": "E06000034"}}, {"type": "Feature", "geometry": {"type": "Point", "coordinates": [-1.980896, 52.667812]}, "properties": {"fid": "169", "cell_id": 168, "name": "Cannock Chase", "type": "ltla", "postcode": "E07000192"}}, {"type": "Feature", "geometry": {"type": "Point", "coordinates": [-0.191952, 51.80015]}, "properties": {"fid": "170", "cell_id": 169, "name": "Welwyn Hatfield", "type": "ltla", "postcode": "E07000241"}}, {"type": "Feature", "geometry": {"type": "Point", "coordinates": [0.111138, 52.248167]}, "properties": {"fid": "171", "cell_id": 170, "name": "South Cambridgeshire", "type": "ltla", "postcode": "E07000012"}}, {"type": "Feature", "geometry": {"type": "Point", "coordinates": [0.549425, 51.390045]}, "properties": {"fid": "172", "cell_id": 171, "name": "Medway", "type": "ltla", "postcode": "E06000035"}}, {"type": "Feature", "geometry": {"type": "Point", "coordinates": [-1.644247, 52.82672]}, "properties": {"fid": "173", "cell_id": 172, "name": "East Staffordshire", "type": "ltla", "postcode": "E07000193"}}, {"type": "Feature", "geometry": {"type": "Point", "coordinates": [-0.100218, 51.799151]}, "properties": {"fid": "174", "cell_id": 173, "name": "East Hertfordshire", "type": "ltla", "postcode": "E07000242"}}, {"type": "Feature", "geometry": {"type": "Point", "coordinates": [-3.000977, 54.785504]}, "properties": {"fid": "175", "cell_id": 174, "name": "Allerdale", "type": "ltla", "postcode": "E07000026"}}, {"type": "Feature", "geometry": {"type": "Point", "coordinates": [-0.735044, 51.416419]}, "properties": {"fid": "176", "cell_id": 175, "name": "Bracknell Forest", "type": "ltla", "postcode": "E06000036"}}, {"type": "Feature", "geometry": {"type": "Point", "coordinates": [-1.83041, 52.686238]}, "properties": {"fid": "177", "cell_id": 176, "name": "Lichfield", "type": "ltla", "postcode": "E07000194"}}, {"type": "Feature", "geometry": {"type": "Point", "coordinates": [-0.16781, 51.914172]}, "properties": {"fid": "178", "cell_id": 177, "name": "Stevenage", "type": "ltla", "postcode": "E07000243"}}, {"type": "Feature", "geometry": {"type": "Point", "coordinates": [-3.227689, 54.111522]}, "properties": {"fid": "179", "cell_id": 178, "name": "Barrow-in-Furness", "type": "ltla", "postcode": "E07000027"}}, {"type": "Feature", "geometry": {"type": "Point", "coordinates": [-1.180956, 51.527771]}, "properties": {"fid": "180", "cell_id": 179, "name": "West Berkshire", "type": "ltla", "postcode": "E06000037"}}, {"type": "Feature", "geometry": {"type": "Point", "coordinates": [-2.259504, 53.033928]}, "properties": {"fid": "181", "cell_id": 180, "name": "Newcastle-under-Lyme", "type": "ltla", "postcode": "E07000195"}}, {"type": "Feature", "geometry": {"type": "Point", "coordinates": [-2.436232, 53.556784]}, "properties": {"fid": "182", "cell_id": 181, "name": "Bolton", "type": "ltla", "postcode": "E08000001"}}, {"type": "Feature", "geometry": {"type": "Point", "coordinates": [-2.969245, 54.895508]}, "properties": {"fid": "183", "cell_id": 182, "name": "Carlisle", "type": "ltla", "postcode": "E07000028"}}, {"type": "Feature", "geometry": {"type": "Point", "coordinates": [-1.023151, 51.460005]}, "properties": {"fid": "184", "cell_id": 183, "name": "Reading", "type": "ltla", "postcode": "E06000038"}}, {"type": "Feature", "geometry": {"type": "Point", "coordinates": [-2.193231, 52.628928]}, "properties": {"fid": "185", "cell_id": 184, "name": "South Staffordshire", "type": "ltla", "postcode": "E07000196"}}, {"type": "Feature", "geometry": {"type": "Point", "coordinates": [-2.289277, 53.532215]}, "properties": {"fid": "186", "cell_id": 185, "name": "Bury", "type": "ltla", "postcode": "E08000002"}}, {"type": "Feature", "geometry": {"type": "Point", "coordinates": [-3.527126, 54.481906]}, "properties": {"fid": "187", "cell_id": 186, "name": "Copeland", "type": "ltla", "postcode": "E07000029"}}, {"type": "Feature", "geometry": {"type": "Point", "coordinates": [-0.532544, 51.497866]}, "properties": {"fid": "188", "cell_id": 187, "name": "Slough", "type": "ltla", "postcode": "E06000039"}}, {"type": "Feature", "geometry": {"type": "Point", "coordinates": [-2.143659, 52.906755]}, "properties": {"fid": "189", "cell_id": 188, "name": "Stafford", "type": "ltla", "postcode": "E07000197"}}, {"type": "Feature", "geometry": {"type": "Point", "coordinates": [-2.209198, 53.446785]}, "properties": {"fid": "190", "cell_id": 189, "name": "Manchester", "type": "ltla", "postcode": "E08000003"}}, {"type": "Feature", "geometry": {"type": "Point", "coordinates": [-2.876598, 54.631846]}, "properties": {"fid": "191", "cell_id": 190, "name": "Eden", "type": "ltla", "postcode": "E07000030"}}, {"type": "Feature", "geometry": {"type": "Point", "coordinates": [-0.735551, 51.522619]}, "properties": {"fid": "192", "cell_id": 191, "name": "Windsor and Maidenhead", "type": "ltla", "postcode": "E06000040"}}, {"type": "Feature", "geometry": {"type": "Point", "coordinates": [-2.035027, 53.100043]}, "properties": {"fid": "193", "cell_id": 192, "name": "Staffordshire Moorlands", "type": "ltla", "postcode": "E07000198"}}, {"type": "Feature", "geometry": {"type": "Point", "coordinates": [-2.066742, 53.536618]}, "properties": {"fid": "194", "cell_id": 193, "name": "Oldham", "type": "ltla", "postcode": "E08000004"}}, {"type": "Feature", "geometry": {"type": "Point", "coordinates": [-2.662958, 54.35517]}, "properties": {"fid": "195", "cell_id": 194, "name": "South Lakeland", "type": "ltla", "postcode": "E07000031"}}, {"type": "Feature", "geometry": {"type": "Point", "coordinates": [-0.837391, 51.412542]}, "properties": {"fid": "196", "cell_id": 195, "name": "Wokingham", "type": "ltla", "postcode": "E06000041"}}, {"type": "Feature", "geometry": {"type": "Point", "coordinates": [-1.68307, 52.593872]}, "properties": {"fid": "197", "cell_id": 196, "name": "Tamworth", "type": "ltla", "postcode": "E07000199"}}, {"type": "Feature", "geometry": {"type": "Point", "coordinates": [-2.213912, 53.581621]}, "properties": {"fid": "198", "cell_id": 197, "name": "Rochdale", "type": "ltla", "postcode": "E08000005"}}, {"type": "Feature", "geometry": {"type": "Point", "coordinates": [-1.368105, 53.010179]}, "properties": {"fid": "199", "cell_id": 198, "name": "Amber Valley", "type": "ltla", "postcode": "E07000032"}}, {"type": "Feature", "geometry": {"type": "Point", "coordinates": [-0.77422, 52.045454]}, "properties": {"fid": "200", "cell_id": 199, "name": "Milton Keynes", "type": "ltla", "postcode": "E06000042"}}, {"type": "Feature", "geometry": {"type": "Point", "coordinates": [0.734415, 52.050698]}, "properties": {"fid": "201", "cell_id": 200, "name": "Babergh", "type": "ltla", "postcode": "E07000200"}}, {"type": "Feature", "geometry": {"type": "Point", "coordinates": [-2.422294, 53.498678]}, "properties": {"fid": "202", "cell_id": 201, "name": "Salford", "type": "ltla", "postcode": "E08000006"}}, {"type": "Feature", "geometry": {"type": "Point", "coordinates": [-1.220939, 53.260716]}, "properties": {"fid": "203", "cell_id": 202, "name": "Bolsover", "type": "ltla", "postcode": "E07000033"}}, {"type": "Feature", "geometry": {"type": "Point", "coordinates": [-0.17386, 50.837264]}, "properties": {"fid": "204", "cell_id": 203, "name": "Brighton and Hove", "type": "ltla", "postcode": "E06000043"}}, {"type": "Feature", "geometry": {"type": "Point", "coordinates": [-2.167127, 53.399922]}, "properties": {"fid": "206", "cell_id": 205, "name": "Stockport", "type": "ltla", "postcode": "E08000007"}}, {"type": "Feature", "geometry": {"type": "Point", "coordinates": [-1.44393, 53.234269]}, "properties": {"fid": "207", "cell_id": 206, "name": "Chesterfield", "type": "ltla", "postcode": "E07000034"}}, {"type": "Feature", "geometry": {"type": "Point", "coordinates": [-1.101011, 50.799381]}, "properties": {"fid": "208", "cell_id": 207, "name": "Portsmouth", "type": "ltla", "postcode": "E06000044"}}, {"type": "Feature", "geometry": {"type": "Point", "coordinates": [1.169325, 52.059412]}, "properties": {"fid": "209", "cell_id": 208, "name": "Ipswich", "type": "ltla", "postcode": "E07000202"}}, {"type": "Feature", "geometry": {"type": "Point", "coordinates": [-2.120733, 53.475077]}, "properties": {"fid": "210", "cell_id": 209, "name": "Tameside", "type": "ltla", "postcode": "E08000008"}}, {"type": "Feature", "geometry": {"type": "Point", "coordinates": [-1.726027, 53.014543]}, "properties": {"fid": "211", "cell_id": 210, "name": "Derbyshire Dales", "type": "ltla", "postcode": "E07000035"}}, {"type": "Feature", "geometry": {"type": "Point", "coordinates": [-1.357686, 50.909536]}, "properties": {"fid": "212", "cell_id": 211, "name": "Southampton", "type": "ltla", "postcode": "E06000045"}}, {"type": "Feature", "geometry": {"type": "Point", "coordinates": [0.997114, 52.187167]}, "properties": {"fid": "213", "cell_id": 212, "name": "Mid Suffolk", "type": "ltla", "postcode": "E07000203"}}, {"type": "Feature", "geometry": {"type": "Point", "coordinates": [-2.520594, 51.767615]}, "properties": {"fid": "214", "cell_id": 213, "name": "Forest of Dean", "type": "ltla", "postcode": "E07000080"}}, {"type": "Feature", "geometry": {"type": "Point", "coordinates": [-2.376027, 53.450673]}, "properties": {"fid": "215", "cell_id": 214, "name": "Trafford", "type": "ltla", "postcode": "E08000009"}}, {"type": "Feature", "geometry": {"type": "Point", "coordinates": [-2.646013, 53.552778]}, "properties": {"fid": "216", "cell_id": 215, "name": "Wigan", "type": "ltla", "postcode": "E08000010"}}, {"type": "Feature", "geometry": {"type": "Point", "coordinates": [-2.799337, 53.412356]}, "properties": {"fid": "217", "cell_id": 216, "name": "Knowsley", "type": "ltla", "postcode": "E08000011"}}, {"type": "Feature", "geometry": {"type": "Point", "coordinates": [-2.891149, 53.42722]}, "properties": {"fid": "218", "cell_id": 217, "name": "Liverpool", "type": "ltla", "postcode": "E08000012"}}, {"type": "Feature", "geometry": {"type": "Point", "coordinates": [-2.758828, 53.428746]}, "properties": {"fid": "219", "cell_id": 218, "name": "St. Helens", "type": "ltla", "postcode": "E08000013"}}, {"type": "Feature", "geometry": {"type": "Point", "coordinates": [-2.924479, 53.505979]}, "properties": {"fid": "220", "cell_id": 219, "name": "Sefton", "type": "ltla", "postcode": "E08000014"}}, {"type": "Feature", "geometry": {"type": "Point", "coordinates": [-3.092883, 53.329335]}, "properties": {"fid": "221", "cell_id": 220, "name": "Wirral", "type": "ltla", "postcode": "E08000015"}}, {"type": "Feature", "geometry": {"type": "Point", "coordinates": [-1.471875, 53.540263]}, "properties": {"fid": "222", "cell_id": 221, "name": "Barnsley", "type": "ltla", "postcode": "E08000016"}}, {"type": "Feature", "geometry": {"type": "Point", "coordinates": [-1.143239, 53.501229]}, "properties": {"fid": "223", "cell_id": 222, "name": "Doncaster", "type": "ltla", "postcode": "E08000017"}}, {"type": "Feature", "geometry": {"type": "Point", "coordinates": [-1.403587, 53.439765]}, "properties": {"fid": "224", "cell_id": 223, "name": "Rotherham", "type": "ltla", "postcode": "E08000018"}}, {"type": "Feature", "geometry": {"type": "Point", "coordinates": [-1.477377, 53.386133]}, "properties": {"fid": "225", "cell_id": 224, "name": "Sheffield", "type": "ltla", "postcode": "E08000019"}}, {"type": "Feature", "geometry": {"type": "Point", "coordinates": [-1.722783, 55.001639]}, "properties": {"fid": "226", "cell_id": 225, "name": "Newcastle upon Tyne", "type": "ltla", "postcode": "E08000021"}}, {"type": "Feature", "geometry": {"type": "Point", "coordinates": [-1.432706, 55.03647]}, "properties": {"fid": "227", "cell_id": 226, "name": "North Tyneside", "type": "ltla", "postcode": "E08000022"}}, {"type": "Feature", "geometry": {"type": "Point", "coordinates": [-1.452707, 54.969479]}, "properties": {"fid": "228", "cell_id": 227, "name": "South Tyneside", "type": "ltla", "postcode": "E08000023"}}, {"type": "Feature", "geometry": {"type": "Point", "coordinates": [-1.470738, 54.842832]}, "properties": {"fid": "229", "cell_id": 228, "name": "Sunderland", "type": "ltla", "postcode": "E08000024"}}, {"type": "Feature", "geometry": {"type": "Point", "coordinates": [-2.275596, 51.832767]}, "properties": {"fid": "230", "cell_id": 229, "name": "Gloucester", "type": "ltla", "postcode": "E07000081"}}, {"type": "Feature", "geometry": {"type": "Point", "coordinates": [-1.281081, 52.902324]}, "properties": {"fid": "231", "cell_id": 230, "name": "Erewash", "type": "ltla", "postcode": "E07000036"}}, {"type": "Feature", "geometry": {"type": "Point", "coordinates": [-2.222142, 51.743221]}, "properties": {"fid": "233", "cell_id": 232, "name": "Stroud", "type": "ltla", "postcode": "E07000082"}}, {"type": "Feature", "geometry": {"type": "Point", "coordinates": [-1.912304, 53.262281]}, "properties": {"fid": "234", "cell_id": 233, "name": "High Peak", "type": "ltla", "postcode": "E07000037"}}, {"type": "Feature", "geometry": {"type": "Point", "coordinates": [-2.136807, 51.999161]}, "properties": {"fid": "236", "cell_id": 235, "name": "Tewkesbury", "type": "ltla", "postcode": "E07000083"}}, {"type": "Feature", "geometry": {"type": "Point", "coordinates": [-1.318862, 53.32297]}, "properties": {"fid": "237", "cell_id": 236, "name": "North East Derbyshire", "type": "ltla", "postcode": "E07000038"}}, {"type": "Feature", "geometry": {"type": "Point", "coordinates": [-1.190108, 51.361387]}, "properties": {"fid": "239", "cell_id": 238, "name": "Basingstoke and Deane", "type": "ltla", "postcode": "E07000084"}}, {"type": "Feature", "geometry": {"type": "Point", "coordinates": [-1.611357, 52.881947]}, "properties": {"fid": "240", "cell_id": 239, "name": "South Derbyshire", "type": "ltla", "postcode": "E07000039"}}, {"type": "Feature", "geometry": {"type": "Point", "coordinates": [-0.900372, 51.121182]}, "properties": {"fid": "241", "cell_id": 240, "name": "East Hampshire", "type": "ltla", "postcode": "E07000085"}}, {"type": "Feature", "geometry": {"type": "Point", "coordinates": [-3.188667, 50.798457]}, "properties": {"fid": "242", "cell_id": 241, "name": "East Devon", "type": "ltla", "postcode": "E07000040"}}, {"type": "Feature", "geometry": {"type": "Point", "coordinates": [-1.361114, 50.968024]}, "properties": {"fid": "243", "cell_id": 242, "name": "Eastleigh", "type": "ltla", "postcode": "E07000086"}}, {"type": "Feature", "geometry": {"type": "Point", "coordinates": [-3.539364, 50.737544]}, "properties": {"fid": "244", "cell_id": 243, "name": "Exeter", "type": "ltla", "postcode": "E07000041"}}, {"type": "Feature", "geometry": {"type": "Point", "coordinates": [-1.230294, 50.855646]}, "properties": {"fid": "245", "cell_id": 244, "name": "Fareham", "type": "ltla", "postcode": "E07000087"}}, {"type": "Feature", "geometry": {"type": "Point", "coordinates": [-3.339333, 50.856358]}, "properties": {"fid": "246", "cell_id": 245, "name": "Mid Devon", "type": "ltla", "postcode": "E07000042"}}, {"type": "Feature", "geometry": {"type": "Point", "coordinates": [-1.166842, 50.825535]}, "properties": {"fid": "247", "cell_id": 246, "name": "Gosport", "type": "ltla", "postcode": "E07000088"}}, {"type": "Feature", "geometry": {"type": "Point", "coordinates": [-1.157062, 50.653483]}, "properties": {"fid": "248", "cell_id": 247, "name": "Isle of Wight", "type": "ltla", "postcode": "E06000046"}}, {"type": "Feature", "geometry": {"type": "Point", "coordinates": [-4.039349, 51.070734]}, "properties": {"fid": "249", "cell_id": 248, "name": "North Devon", "type": "ltla", "postcode": "E07000043"}}, {"type": "Feature", "geometry": {"type": "Point", "coordinates": [-0.969657, 51.280985]}, "properties": {"fid": "250", "cell_id": 249, "name": "Hart", "type": "ltla", "postcode": "E07000089"}}, {"type": "Feature", "geometry": {"type": "Point", "coordinates": [-1.531661, 54.775153]}, "properties": {"fid": "251", "cell_id": 250, "name": "County Durham", "type": "ltla", "postcode": "E06000047"}}, {"type": "Feature", "geometry": {"type": "Point", "coordinates": [-3.791347, 50.280844]}, "properties": {"fid": "252", "cell_id": 251, "name": "South Hams", "type": "ltla", "postcode": "E07000044"}}, {"type": "Feature", "geometry": {"type": "Point", "coordinates": [-0.940454, 50.850048]}, "properties": {"fid": "253", "cell_id": 252, "name": "Havant", "type": "ltla", "postcode": "E07000090"}}, {"type": "Feature", "geometry": {"type": "Point", "coordinates": [-2.208654, 53.338932]}, "properties": {"fid": "254", "cell_id": 253, "name": "Cheshire East", "type": "ltla", "postcode": "E06000049"}}, {"type": "Feature", "geometry": {"type": "Point", "coordinates": [-3.611579, 50.528639]}, "properties": {"fid": "255", "cell_id": 254, "name": "Teignbridge", "type": "ltla", "postcode": "E07000045"}}, {"type": "Feature", "geometry": {"type": "Point", "coordinates": [-1.658293, 50.738442]}, "properties": {"fid": "256", "cell_id": 255, "name": "New Forest", "type": "ltla", "postcode": "E07000091"}}, {"type": "Feature", "geometry": {"type": "Point", "coordinates": [-2.563219, 53.304445]}, "properties": {"fid": "257", "cell_id": 256, "name": "Cheshire West and Chester", "type": "ltla", "postcode": "E06000050"}}, {"type": "Feature", "geometry": {"type": "Point", "coordinates": [-4.23286, 51.037931]}, "properties": {"fid": "258", "cell_id": 257, "name": "Torridge", "type": "ltla", "postcode": "E07000046"}}, {"type": "Feature", "geometry": {"type": "Point", "coordinates": [-0.746661, 51.239145]}, "properties": {"fid": "259", "cell_id": 258, "name": "Rushmoor", "type": "ltla", "postcode": "E07000092"}}, {"type": "Feature", "geometry": {"type": "Point", "coordinates": [-3.05864, 52.842388]}, "properties": {"fid": "260", "cell_id": 259, "name": "Shropshire", "type": "ltla", "postcode": "E06000051"}}, {"type": "Feature", "geometry": {"type": "Point", "coordinates": [-3.859329, 50.642656]}, "properties": {"fid": "261", "cell_id": 260, "name": "West Devon", "type": "ltla", "postcode": "E07000047"}}, {"type": "Feature", "geometry": {"type": "Point", "coordinates": [-1.446709, 51.204307]}, "properties": {"fid": "262", "cell_id": 261, "name": "Test Valley", "type": "ltla", "postcode": "E07000093"}}, {"type": "Feature", "geometry": {"type": "Point", "coordinates": [-5.081908, 50.410799]}, "properties": {"fid": "263", "cell_id": 262, "name": "Cornwall", "type": "ltla", "postcode": "E06000052"}}, {"type": "Feature", "geometry": {"type": "Point", "coordinates": [-1.338228, 51.058925]}, "properties": {"fid": "265", "cell_id": 264, "name": "Winchester", "type": "ltla", "postcode": "E07000094"}}, {"type": "Feature", "geometry": {"type": "Point", "coordinates": [-0.079241, 51.720373]}, "properties": {"fid": "268", "cell_id": 267, "name": "Broxbourne", "type": "ltla", "postcode": "E07000095"}}, {"type": "Feature", "geometry": {"type": "Point", "coordinates": [-1.995513, 51.51312]}, "properties": {"fid": "269", "cell_id": 268, "name": "Wiltshire", "type": "ltla", "postcode": "E06000054"}}, {"type": "Feature", "geometry": {"type": "Point", "coordinates": [-0.456889, 51.717838]}, "properties": {"fid": "271", "cell_id": 270, "name": "Dacorum", "type": "ltla", "postcode": "E07000096"}}, {"type": "Feature", "geometry": {"type": "Point", "coordinates": [-0.430738, 52.145016]}, "properties": {"fid": "272", "cell_id": 271, "name": "Bedford", "type": "ltla", "postcode": "E06000055"}}, {"type": "Feature", "geometry": {"type": "Point", "coordinates": [-0.257893, 51.646626]}, "properties": {"fid": "274", "cell_id": 273, "name": "Hertsmere", "type": "ltla", "postcode": "E07000098"}}, {"type": "Feature", "geometry": {"type": "Point", "coordinates": [-0.538393, 51.884624]}, "properties": {"fid": "275", "cell_id": 274, "name": "Central Bedfordshire", "type": "ltla", "postcode": "E06000056"}}, {"type": "Feature", "geometry": {"type": "Point", "coordinates": [-0.284859, 51.876948]}, "properties": {"fid": "277", "cell_id": 276, "name": "North Hertfordshire", "type": "ltla", "postcode": "E07000099"}}, {"type": "Feature", "geometry": {"type": "Point", "coordinates": [-1.615001, 55.201636]}, "properties": {"fid": "278", "cell_id": 277, "name": "Northumberland", "type": "ltla", "postcode": "E06000057"}}, {"type": "Feature", "geometry": {"type": "Point", "coordinates": [-0.446398, 51.654316]}, "properties": {"fid": "280", "cell_id": 279, "name": "Three Rivers", "type": "ltla", "postcode": "E07000102"}}, {"type": "Feature", "geometry": {"type": "Point", "coordinates": [0.25849, 50.771573]}, "properties": {"fid": "281", "cell_id": 280, "name": "Eastbourne", "type": "ltla", "postcode": "E07000061"}}, {"type": "Feature", "geometry": {"type": "Point", "coordinates": [-0.37972, 51.683655]}, "properties": {"fid": "282", "cell_id": 281, "name": "Watford", "type": "ltla", "postcode": "E07000103"}}, {"type": "Feature", "geometry": {"type": "Point", "coordinates": [0.590562, 50.857516]}, "properties": {"fid": "283", "cell_id": 282, "name": "Hastings", "type": "ltla", "postcode": "E07000062"}}, {"type": "Feature", "geometry": {"type": "Point", "coordinates": [0.852853, 51.159792]}, "properties": {"fid": "284", "cell_id": 283, "name": "Ashford", "type": "ltla", "postcode": "E07000105"}}, {"type": "Feature", "geometry": {"type": "Point", "coordinates": [0.116055, 50.783365]}, "properties": {"fid": "285", "cell_id": 284, "name": "Lewes", "type": "ltla", "postcode": "E07000063"}}, {"type": "Feature", "geometry": {"type": "Point", "coordinates": [1.022257, 51.336329]}, "properties": {"fid": "286", "cell_id": 285, "name": "Canterbury", "type": "ltla", "postcode": "E07000106"}}, {"type": "Feature", "geometry": {"type": "Point", "coordinates": [0.53202, 50.934907]}, "properties": {"fid": "287", "cell_id": 286, "name": "Rother", "type": "ltla", "postcode": "E07000064"}}, {"type": "Feature", "geometry": {"type": "Point", "coordinates": [0.227983, 51.452977]}, "properties": {"fid": "288", "cell_id": 287, "name": "Dartford", "type": "ltla", "postcode": "E07000107"}}, {"type": "Feature", "geometry": {"type": "Point", "coordinates": [0.232307, 51.035298]}, "properties": {"fid": "289", "cell_id": 288, "name": "Wealden", "type": "ltla", "postcode": "E07000065"}}, {"type": "Feature", "geometry": {"type": "Point", "coordinates": [1.222977, 51.266179]}, "properties": {"fid": "290", "cell_id": 289, "name": "Dover", "type": "ltla", "postcode": "E07000108"}}, {"type": "Feature", "geometry": {"type": "Point", "coordinates": [0.462665, 51.560949]}, "properties": {"fid": "291", "cell_id": 290, "name": "Basildon", "type": "ltla", "postcode": "E07000066"}}, {"type": "Feature", "geometry": {"type": "Point", "coordinates": [0.375743, 51.422034]}, "properties": {"fid": "292", "cell_id": 291, "name": "Gravesham", "type": "ltla", "postcode": "E07000109"}}, {"type": "Feature", "geometry": {"type": "Point", "coordinates": [0.578689, 51.880809]}, "properties": {"fid": "293", "cell_id": 292, "name": "Braintree", "type": "ltla", "postcode": "E07000067"}}, {"type": "Feature", "geometry": {"type": "Point", "coordinates": [0.556564, 51.243103]}, "properties": {"fid": "294", "cell_id": 293, "name": "Maidstone", "type": "ltla", "postcode": "E07000110"}}, {"type": "Feature", "geometry": {"type": "Point", "coordinates": [0.299564, 51.608019]}, "properties": {"fid": "295", "cell_id": 294, "name": "Brentwood", "type": "ltla", "postcode": "E07000068"}}, {"type": "Feature", "geometry": {"type": "Point", "coordinates": [0.116907, 51.277909]}, "properties": {"fid": "296", "cell_id": 295, "name": "Sevenoaks", "type": "ltla", "postcode": "E07000111"}}, {"type": "Feature", "geometry": {"type": "Point", "coordinates": [0.601425, 51.529115]}, "properties": {"fid": "297", "cell_id": 296, "name": "Castle Point", "type": "ltla", "postcode": "E07000069"}}, {"type": "Feature", "geometry": {"type": "Point", "coordinates": [0.978913, 51.00794]}, "properties": {"fid": "298", "cell_id": 297, "name": "Folkestone and Hythe", "type": "ltla", "postcode": "E07000112"}}, {"type": "Feature", "geometry": {"type": "Point", "coordinates": [0.465641, 51.73681]}, "properties": {"fid": "299", "cell_id": 298, "name": "Chelmsford", "type": "ltla", "postcode": "E07000070"}}, {"type": "Feature", "geometry": {"type": "Point", "coordinates": [0.73626, 51.360951]}, "properties": {"fid": "300", "cell_id": 299, "name": "Swale", "type": "ltla", "postcode": "E07000113"}}, {"type": "Feature", "geometry": {"type": "Point", "coordinates": [0.913982, 51.963967]}, "properties": {"fid": "301", "cell_id": 300, "name": "Colchester", "type": "ltla", "postcode": "E07000071"}}, {"type": "Feature", "geometry": {"type": "Point", "coordinates": [1.409605, 51.340316]}, "properties": {"fid": "302", "cell_id": 301, "name": "Thanet", "type": "ltla", "postcode": "E07000114"}}, {"type": "Feature", "geometry": {"type": "Point", "coordinates": [0.054238, 51.651472]}, "properties": {"fid": "303", "cell_id": 302, "name": "Epping Forest", "type": "ltla", "postcode": "E07000072"}}, {"type": "Feature", "geometry": {"type": "Point", "coordinates": [0.448987, 51.309474]}, "properties": {"fid": "304", "cell_id": 303, "name": "Tonbridge and Malling", "type": "ltla", "postcode": "E07000115"}}, {"type": "Feature", "geometry": {"type": "Point", "coordinates": [0.086014, 51.759712]}, "properties": {"fid": "305", "cell_id": 304, "name": "Harlow", "type": "ltla", "postcode": "E07000073"}}, {"type": "Feature", "geometry": {"type": "Point", "coordinates": [0.473468, 51.119011]}, "properties": {"fid": "306", "cell_id": 305, "name": "Tunbridge Wells", "type": "ltla", "postcode": "E07000116"}}, {"type": "Feature", "geometry": {"type": "Point", "coordinates": [0.670975, 51.672416]}, "properties": {"fid": "307", "cell_id": 306, "name": "Maldon", "type": "ltla", "postcode": "E07000074"}}, {"type": "Feature", "geometry": {"type": "Point", "coordinates": [-2.262839, 53.781555]}, "properties": {"fid": "308", "cell_id": 307, "name": "Burnley", "type": "ltla", "postcode": "E07000117"}}, {"type": "Feature", "geometry": {"type": "Point", "coordinates": [0.604175, 51.584072]}, "properties": {"fid": "309", "cell_id": 308, "name": "Rochford", "type": "ltla", "postcode": "E07000075"}}, {"type": "Feature", "geometry": {"type": "Point", "coordinates": [-2.601029, 53.617433]}, "properties": {"fid": "310", "cell_id": 309, "name": "Chorley", "type": "ltla", "postcode": "E07000118"}}, {"type": "Feature", "geometry": {"type": "Point", "coordinates": [1.047148, 51.794629]}, "properties": {"fid": "311", "cell_id": 310, "name": "Tendring", "type": "ltla", "postcode": "E07000076"}}, {"type": "Feature", "geometry": {"type": "Point", "coordinates": [-2.851526, 53.788783]}, "properties": {"fid": "312", "cell_id": 311, "name": "Fylde", "type": "ltla", "postcode": "E07000119"}}, {"type": "Feature", "geometry": {"type": "Point", "coordinates": [0.36333, 51.865594]}, "properties": {"fid": "313", "cell_id": 312, "name": "Uttlesford", "type": "ltla", "postcode": "E07000077"}}, {"type": "Feature", "geometry": {"type": "Point", "coordinates": [-2.399151, 53.738539]}, "properties": {"fid": "314", "cell_id": 313, "name": "Hyndburn", "type": "ltla", "postcode": "E07000120"}}, {"type": "Feature", "geometry": {"type": "Point", "coordinates": [-2.075635, 51.902781]}, "properties": {"fid": "315", "cell_id": 314, "name": "Cheltenham", "type": "ltla", "postcode": "E07000078"}}, {"type": "Feature", "geometry": {"type": "Point", "coordinates": [-2.785967, 54.001756]}, "properties": {"fid": "316", "cell_id": 315, "name": "Lancaster", "type": "ltla", "postcode": "E07000121"}}, {"type": "Feature", "geometry": {"type": "Point", "coordinates": [-1.858322, 51.672892]}, "properties": {"fid": "317", "cell_id": 316, "name": "Cotswold", "type": "ltla", "postcode": "E07000079"}}, {"type": "Feature", "geometry": {"type": "Point", "coordinates": [-2.173961, 53.926044]}, "properties": {"fid": "318", "cell_id": 317, "name": "Pendle", "type": "ltla", "postcode": "E07000122"}}, {"type": "Feature", "geometry": {"type": "Point", "coordinates": [-2.711328, 53.769627]}, "properties": {"fid": "319", "cell_id": 318, "name": "Preston", "type": "ltla", "postcode": "E07000123"}}, {"type": "Feature", "geometry": {"type": "Point", "coordinates": [-2.390084, 53.895418]}, "properties": {"fid": "320", "cell_id": 319, "name": "Ribble Valley", "type": "ltla", "postcode": "E07000124"}}, {"type": "Feature", "geometry": {"type": "Point", "coordinates": [-2.251885, 53.713646]}, "properties": {"fid": "321", "cell_id": 320, "name": "Rossendale", "type": "ltla", "postcode": "E07000125"}}, {"type": "Feature", "geometry": {"type": "Point", "coordinates": [-2.740081, 53.747101]}, "properties": {"fid": "322", "cell_id": 321, "name": "South Ribble", "type": "ltla", "postcode": "E07000126"}}, {"type": "Feature", "geometry": {"type": "Point", "coordinates": [-2.874653, 53.565562]}, "properties": {"fid": "323", "cell_id": 322, "name": "West Lancashire", "type": "ltla", "postcode": "E07000127"}}, {"type": "Feature", "geometry": {"type": "Point", "coordinates": [-3.03087, 53.923605]}, "properties": {"fid": "324", "cell_id": 323, "name": "Wyre", "type": "ltla", "postcode": "E07000128"}}, {"type": "Feature", "geometry": {"type": "Point", "coordinates": [-1.226768, 52.618779]}, "properties": {"fid": "325", "cell_id": 324, "name": "Blaby", "type": "ltla", "postcode": "E07000129"}}, {"type": "Feature", "geometry": {"type": "Point", "coordinates": [-1.20767, 52.769612]}, "properties": {"fid": "326", "cell_id": 325, "name": "Charnwood", "type": "ltla", "postcode": "E07000130"}}, {"type": "Feature", "geometry": {"type": "Point", "coordinates": [-0.939219, 52.49531]}, "properties": {"fid": "327", "cell_id": 326, "name": "Harborough", "type": "ltla", "postcode": "E07000131"}}, {"type": "Feature", "geometry": {"type": "Point", "coordinates": [-1.35091, 52.677194]}, "properties": {"fid": "328", "cell_id": 327, "name": "Hinckley and Bosworth", "type": "ltla", "postcode": "E07000132"}}, {"type": "Feature", "geometry": {"type": "Point", "coordinates": [-0.889394, 52.766951]}, "properties": {"fid": "329", "cell_id": 328, "name": "Melton", "type": "ltla", "postcode": "E07000133"}}, {"type": "Feature", "geometry": {"type": "Point", "coordinates": [-1.532342, 52.685833]}, "properties": {"fid": "330", "cell_id": 329, "name": "North West Leicestershire", "type": "ltla", "postcode": "E07000134"}}, {"type": "Feature", "geometry": {"type": "Point", "coordinates": [-1.060517, 52.592684]}, "properties": {"fid": "331", "cell_id": 330, "name": "Oadby and Wigston", "type": "ltla", "postcode": "E07000135"}}, {"type": "Feature", "geometry": {"type": "Point", "coordinates": [-0.172494, 53.039765]}, "properties": {"fid": "332", "cell_id": 331, "name": "Boston", "type": "ltla", "postcode": "E07000136"}}, {"type": "Feature", "geometry": {"type": "Point", "coordinates": [0.25979, 53.331193]}, "properties": {"fid": "333", "cell_id": 332, "name": "East Lindsey", "type": "ltla", "postcode": "E07000137"}}, {"type": "Feature", "geometry": {"type": "Point", "coordinates": [-0.535314, 53.238682]}, "properties": {"fid": "334", "cell_id": 333, "name": "Lincoln", "type": "ltla", "postcode": "E07000138"}}, {"type": "Feature", "geometry": {"type": "Point", "coordinates": [-0.420399, 52.995493]}, "properties": {"fid": "335", "cell_id": 334, "name": "North Kesteven", "type": "ltla", "postcode": "E07000139"}}, {"type": "Feature", "geometry": {"type": "Point", "coordinates": [-1.975889, 52.440755]}, "properties": {"fid": "336", "cell_id": 335, "name": "Birmingham", "type": "ltla", "postcode": "E08000025"}}, {"type": "Feature", "geometry": {"type": "Point", "coordinates": [-1.550256, 52.411647]}, "properties": {"fid": "337", "cell_id": 336, "name": "Coventry", "type": "ltla", "postcode": "E08000026"}}, {"type": "Feature", "geometry": {"type": "Point", "coordinates": [-2.145222, 52.456993]}, "properties": {"fid": "338", "cell_id": 337, "name": "Dudley", "type": "ltla", "postcode": "E08000027"}}, {"type": "Feature", "geometry": {"type": "Point", "coordinates": [-2.007788, 52.470918]}, "properties": {"fid": "339", "cell_id": 338, "name": "Sandwell", "type": "ltla", "postcode": "E08000028"}}, {"type": "Feature", "geometry": {"type": "Point", "coordinates": [-1.641258, 52.437022]}, "properties": {"fid": "340", "cell_id": 339, "name": "Solihull", "type": "ltla", "postcode": "E08000029"}}, {"type": "Feature", "geometry": {"type": "Point", "coordinates": [-1.97908, 52.601027]}, "properties": {"fid": "341", "cell_id": 340, "name": "Walsall", "type": "ltla", "postcode": "E08000030"}}, {"type": "Feature", "geometry": {"type": "Point", "coordinates": [-2.168056, 52.578767]}, "properties": {"fid": "342", "cell_id": 341, "name": "Wolverhampton", "type": "ltla", "postcode": "E08000031"}}, {"type": "Feature", "geometry": {"type": "Point", "coordinates": [-1.829811, 53.774137]}, "properties": {"fid": "343", "cell_id": 342, "name": "Bradford", "type": "ltla", "postcode": "E08000032"}}, {"type": "Feature", "geometry": {"type": "Point", "coordinates": [-1.898494, 53.771218]}, "properties": {"fid": "344", "cell_id": 343, "name": "Calderdale", "type": "ltla", "postcode": "E08000033"}}, {"type": "Feature", "geometry": {"type": "Point", "coordinates": [-1.740265, 53.64266]}, "properties": {"fid": "345", "cell_id": 344, "name": "Kirklees", "type": "ltla", "postcode": "E08000034"}}, {"type": "Feature", "geometry": {"type": "Point", "coordinates": [-1.6002, 53.858151]}, "properties": {"fid": "346", "cell_id": 345, "name": "Leeds", "type": "ltla", "postcode": "E08000035"}}, {"type": "Feature", "geometry": {"type": "Point", "coordinates": [-1.409406, 53.701546]}, "properties": {"fid": "347", "cell_id": 346, "name": "Wakefield", "type": "ltla", "postcode": "E08000036"}}, {"type": "Feature", "geometry": {"type": "Point", "coordinates": [-1.589194, 54.951657]}, "properties": {"fid": "348", "cell_id": 347, "name": "Gateshead", "type": "ltla", "postcode": "E08000037"}}, {"type": "Feature", "geometry": {"type": "Point", "coordinates": [0.126637, 51.559104]}, "properties": {"fid": "350", "cell_id": 349, "name": "Barking and Dagenham", "type": "ltla", "postcode": "E09000002"}}, {"type": "Feature", "geometry": {"type": "Point", "coordinates": [-0.199692, 51.578944]}, "properties": {"fid": "351", "cell_id": 350, "name": "Barnet", "type": "ltla", "postcode": "E09000003"}}, {"type": "Feature", "geometry": {"type": "Point", "coordinates": [0.089591, 51.427495]}, "properties": {"fid": "352", "cell_id": 351, "name": "Bexley", "type": "ltla", "postcode": "E09000004"}}, {"type": "Feature", "geometry": {"type": "Point", "coordinates": [-0.243105, 51.557247]}, "properties": {"fid": "353", "cell_id": 352, "name": "Brent", "type": "ltla", "postcode": "E09000005"}}, {"type": "Feature", "geometry": {"type": "Point", "coordinates": [0.017604, 51.408226]}, "properties": {"fid": "354", "cell_id": 353, "name": "Bromley", "type": "ltla", "postcode": "E09000006"}}, {"type": "Feature", "geometry": {"type": "Point", "coordinates": [-0.145205, 51.560569]}, "properties": {"fid": "355", "cell_id": 354, "name": "Camden", "type": "ltla", "postcode": "E09000007"}}, {"type": "Feature", "geometry": {"type": "Point", "coordinates": [-0.081315, 51.415274]}, "properties": {"fid": "356", "cell_id": 355, "name": "Croydon", "type": "ltla", "postcode": "E09000008"}}, {"type": "Feature", "geometry": {"type": "Point", "coordinates": [-0.393256, 51.498837]}, "properties": {"fid": "357", "cell_id": 356, "name": "Ealing", "type": "ltla", "postcode": "E09000009"}}, {"type": "Feature", "geometry": {"type": "Point", "coordinates": [-0.08297, 51.614342]}, "properties": {"fid": "358", "cell_id": 357, "name": "Enfield", "type": "ltla", "postcode": "E09000010"}}, {"type": "Feature", "geometry": {"type": "Point", "coordinates": [0.013947, 51.495051]}, "properties": {"fid": "359", "cell_id": 358, "name": "Greenwich", "type": "ltla", "postcode": "E09000011"}}, {"type": "Feature", "geometry": {"type": "Point", "coordinates": [-0.070699, 51.55899]}, "properties": {"fid": "360", "cell_id": 359, "name": "Hackney", "type": "ltla", "postcode": "E09000012"}}, {"type": "Feature", "geometry": {"type": "Point", "coordinates": [-0.245118, 51.512783]}, "properties": {"fid": "361", "cell_id": 360, "name": "Hammersmith and Fulham", "type": "ltla", "postcode": "E09000013"}}, {"type": "Feature", "geometry": {"type": "Point", "coordinates": [-0.118077, 51.579987]}, "properties": {"fid": "362", "cell_id": 361, "name": "Haringey", "type": "ltla", "postcode": "E09000014"}}, {"type": "Feature", "geometry": {"type": "Point", "coordinates": [-0.278639, 51.597637]}, "properties": {"fid": "363", "cell_id": 362, "name": "Harrow", "type": "ltla", "postcode": "E09000015"}}, {"type": "Feature", "geometry": {"type": "Point", "coordinates": [0.169234, 51.591439]}, "properties": {"fid": "364", "cell_id": 363, "name": "Havering", "type": "ltla", "postcode": "E09000016"}}, {"type": "Feature", "geometry": {"type": "Point", "coordinates": [-0.435767, 51.49809]}, "properties": {"fid": "365", "cell_id": 364, "name": "Hillingdon", "type": "ltla", "postcode": "E09000017"}}, {"type": "Feature", "geometry": {"type": "Point", "coordinates": [-0.324747, 51.495765]}, "properties": {"fid": "366", "cell_id": 365, "name": "Hounslow", "type": "ltla", "postcode": "E09000018"}}, {"type": "Feature", "geometry": {"type": "Point", "coordinates": [-0.116505, 51.558934]}, "properties": {"fid": "367", "cell_id": 366, "name": "Islington", "type": "ltla", "postcode": "E09000019"}}, {"type": "Feature", "geometry": {"type": "Point", "coordinates": [-0.217033, 51.513439]}, "properties": {"fid": "368", "cell_id": 367, "name": "Kensington and Chelsea", "type": "ltla", "postcode": "E09000020"}}, {"type": "Feature", "geometry": {"type": "Point", "coordinates": [-0.255788, 51.401625]}, "properties": {"fid": "369", "cell_id": 368, "name": "Kingston upon Thames", "type": "ltla", "postcode": "E09000021"}}, {"type": "Feature", "geometry": {"type": "Point", "coordinates": [-0.108275, 51.480495]}, "properties": {"fid": "370", "cell_id": 369, "name": "Lambeth", "type": "ltla", "postcode": "E09000022"}}, {"type": "Feature", "geometry": {"type": "Point", "coordinates": [-0.043302, 51.449006]}, "properties": {"fid": "371", "cell_id": 370, "name": "Lewisham", "type": "ltla", "postcode": "E09000023"}}, {"type": "Feature", "geometry": {"type": "Point", "coordinates": [-0.189225, 51.391775]}, "properties": {"fid": "372", "cell_id": 371, "name": "Merton", "type": "ltla", "postcode": "E09000024"}}, {"type": "Feature", "geometry": {"type": "Point", "coordinates": [0.052689, 51.532949]}, "properties": {"fid": "373", "cell_id": 372, "name": "Newham", "type": "ltla", "postcode": "E09000025"}}, {"type": "Feature", "geometry": {"type": "Point", "coordinates": [0.031087, 51.584673]}, "properties": {"fid": "374", "cell_id": 373, "name": "Redbridge", "type": "ltla", "postcode": "E09000026"}}, {"type": "Feature", "geometry": {"type": "Point", "coordinates": [-0.365463, 51.42414]}, "properties": {"fid": "375", "cell_id": 374, "name": "Richmond upon Thames", "type": "ltla", "postcode": "E09000027"}}, {"type": "Feature", "geometry": {"type": "Point", "coordinates": [-0.043179, 51.49091]}, "properties": {"fid": "376", "cell_id": 375, "name": "Southwark", "type": "ltla", "postcode": "E09000028"}}, {"type": "Feature", "geometry": {"type": "Point", "coordinates": [-0.177459, 51.362322]}, "properties": {"fid": "377", "cell_id": 376, "name": "Sutton", "type": "ltla", "postcode": "E09000029"}}, {"type": "Feature", "geometry": {"type": "Point", "coordinates": [-0.003831, 51.490427]}, "properties": {"fid": "378", "cell_id": 377, "name": "Tower Hamlets", "type": "ltla", "postcode": "E09000030"}}, {"type": "Feature", "geometry": {"type": "Point", "coordinates": [-0.008139, 51.587827]}, "properties": {"fid": "379", "cell_id": 378, "name": "Waltham Forest", "type": "ltla", "postcode": "E09000031"}}, {"type": "Feature", "geometry": {"type": "Point", "coordinates": [-0.152682, 51.461537]}, "properties": {"fid": "380", "cell_id": 379, "name": "Wandsworth", "type": "ltla", "postcode": "E09000032"}}, {"type": "Feature", "geometry": {"type": "Point", "coordinates": [-0.146636, 51.508337]}, "properties": {"fid": "381", "cell_id": 380, "name": "Westminster", "type": "ltla", "postcode": "E09000033"}}, {"type": "Feature", "geometry": {"type": "Point", "coordinates": [-5.928112, 54.662402]}, "properties": {"fid": "382", "cell_id": 381, "name": "Antrim and Newtownabbey", "type": "ltla", "postcode": "N09000001"}}, {"type": "Feature", "geometry": {"type": "Point", "coordinates": [-6.759887, 54.232482]}, "properties": {"fid": "383", "cell_id": 382, "name": "Armagh City, Banbridge and Craigavon", "type": "ltla", "postcode": "N09000002"}}, {"type": "Feature", "geometry": {"type": "Point", "coordinates": [-5.976726, 54.603933]}, "properties": {"fid": "384", "cell_id": 383, "name": "Belfast", "type": "ltla", "postcode": "N09000003"}}, {"type": "Feature", "geometry": {"type": "Point", "coordinates": [-6.423299, 55.062483]}, "properties": {"fid": "385", "cell_id": 384, "name": "Causeway Coast and Glens", "type": "ltla", "postcode": "N09000004"}}, {"type": "Feature", "geometry": {"type": "Point", "coordinates": [-7.334414, 54.994253]}, "properties": {"fid": "386", "cell_id": 385, "name": "Derry City and Strabane", "type": "ltla", "postcode": "N09000005"}}, {"type": "Feature", "geometry": {"type": "Point", "coordinates": [-7.750497, 54.329314]}, "properties": {"fid": "387", "cell_id": 386, "name": "Fermanagh and Omagh", "type": "ltla", "postcode": "N09000006"}}, {"type": "Feature", "geometry": {"type": "Point", "coordinates": [-6.040819, 54.535858]}, "properties": {"fid": "388", "cell_id": 387, "name": "Lisburn and Castlereagh", "type": "ltla", "postcode": "N09000007"}}, {"type": "Feature", "geometry": {"type": "Point", "coordinates": [-6.469083, 54.874905]}, "properties": {"fid": "389", "cell_id": 388, "name": "Mid and East Antrim", "type": "ltla", "postcode": "N09000008"}}, {"type": "Feature", "geometry": {"type": "Point", "coordinates": [-6.533524, 54.791918]}, "properties": {"fid": "390", "cell_id": 389, "name": "Mid Ulster", "type": "ltla", "postcode": "N09000009"}}, {"type": "Feature", "geometry": {"type": "Point", "coordinates": [-5.946114, 54.255276]}, "properties": {"fid": "391", "cell_id": 390, "name": "Newry, Mourne and Down", "type": "ltla", "postcode": "N09000010"}}]}